{
"type": "FeatureCollection",
"name": "Health Points",
"crs": { "type": "name", "properties": { "name": "urn:ogc:def:crs:EPSG::26917" } },
"features": [
{ "type": "Feature", "properties": { "File Numbe": "100219", "Facility": "FLAGLER HOSPITAL", "Type": "Hospital", "Street Add": "400 HEALTH PARK BLVD", "City": "SAINT AUGUSTINE", "Zip": "32086", "State": "Florida", "Country": "USA", "Phone Numb": "(904) 819-5155", "Licensed B": "335", "display_na": "Flagler Hospital, 400, Health Park Boulevard, Saint Augustine, Saint Johns County, Florida, 32086, United States", "category": "amenity", "type_1": "hospital", "latlong": "29.8626603,-81.31941620829483", "NAME": "St. Johns", "Geographic": "Census Tract 213.02; St. Johns County; Florida", "x": -81.319416208299998, "y": 29.8626603 }, "geometry": { "type": "Point", "coordinates": [ 469150.633171067689545, 3303609.976708585396409 ] } },
{ "type": "Feature", "properties": { "File Numbe": "23960171", "Facility": "ENCOMPASS HEALTH REHABILITATION HOSPITAL OF ST AUGUSTINE", "Type": "Hospital", "Street Add": "65 SILVER LANE", "City": "SAINT AUGUSTINE", "Zip": "32084", "State": "Florida", "Country": "USA", "Phone Numb": "(904) 640-2000", "Licensed B": "40", "display_na": "65, Silver Lane, Saint Augustine, Saint Johns County, Florida, 32084, United States", "category": "place", "type_1": "house", "latlong": "29.863320690992946,-81.35086228402308", "NAME": "St. Johns", "Geographic": "Census Tract 211.03; St. Johns County; Florida", "x": -81.350862284000002, "y": 29.863320690999998 }, "geometry": { "type": "Point", "coordinates": [ 466113.76117418135982, 3303691.998169534374028 ] } },
{ "type": "Feature", "properties": { "File Numbe": "23960181", "Facility": "ASCENSION ST VINCENT'S ST JOHNS COUNTY", "Type": "Hospital", "Street Add": "205 TRINITY WAY", "City": "SAINT JOHNS", "Zip": "32259", "State": "Florida", "Country": "USA", "Phone Numb": "(904) 691-1000", "Licensed B": "56", "display_na": "Trinity Way, Sampson, Saint Johns County, Florida, 32251, United States", "category": "highway", "type_1": "service", "latlong": "30.0706735,-81.4979732", "NAME": "St. Johns", "Geographic": "Census Tract 209.04; St. Johns County; Florida", "x": -81.4979732, "y": 30.0706735 }, "geometry": { "type": "Point", "coordinates": [ 452005.402248470054474, 3326721.09884429955855 ] } },
{ "type": "Feature", "properties": { "File Numbe": "23960181", "Facility": "ASCENSION ST VINCENT'S ST JOHNS COUNTY", "Type": "Hospital", "Street Add": "205 TRINITY WAY", "City": "SAINT JOHNS", "Zip": "32259", "State": "Florida", "Country": "USA", "Phone Numb": "(904) 691-1000", "Licensed B": "56", "display_na": "Trinity Way, Sampson, Saint Johns County, Florida, 33359, United States", "category": "highway", "type_1": "service", "latlong": "30.0696027,-81.4938523", "NAME": "St. Johns", "Geographic": "Census Tract 209.04; St. Johns County; Florida", "x": -81.4938523, "y": 30.0696027 }, "geometry": { "type": "Point", "coordinates": [ 452402.066585729771759, 3326600.719493269454688 ] } },
{ "type": "Feature", "properties": { "File Numbe": "100001", "Facility": "UF HEALTH JACKSONVILLE", "Type": "Hospital", "Street Add": "655 W 8TH ST", "City": "JACKSONVILLE", "Zip": "32209", "State": "Florida", "Country": "USA", "Phone Numb": "(904) 244-4000", "Licensed B": "623", "display_na": "UF Health Jacksonville, 655, West 8th Street, Jacksonville, Duval County, Florida, 32209, United States", "category": "amenity", "type_1": "hospital", "latlong": "30.3484582,-81.66491490988216", "NAME": "Duval", "Geographic": "Census Tract 16; Duval County; Florida", "x": -81.664914909900006, "y": 30.3484582 }, "geometry": { "type": "Point", "coordinates": [ 436095.018183415639214, 3357585.727742098271847 ] } },
{ "type": "Feature", "properties": { "File Numbe": "100001", "Facility": "UF HEALTH JACKSONVILLE", "Type": "Hospital", "Street Add": "655 W 8TH ST", "City": "JACKSONVILLE", "Zip": "32209", "State": "Florida", "Country": "USA", "Phone Numb": "(904) 244-4000", "Licensed B": "623", "display_na": "655, West 8th Street, Jacksonville, Duval County, Florida, 32209, United States", "category": "place", "type_1": "house", "latlong": "30.34655181632653,-81.66309436734694", "NAME": "Duval", "Geographic": "Census Tract 16; Duval County; Florida", "x": -81.663094367300005, "y": 30.3465518163 }, "geometry": { "type": "Point", "coordinates": [ 436268.759055257600266, 3357373.44219579687342 ] } },
{ "type": "Feature", "properties": { "File Numbe": "100001", "Facility": "UF HEALTH JACKSONVILLE", "Type": "Hospital", "Street Add": "655 W 8TH ST", "City": "JACKSONVILLE", "Zip": "32209", "State": "Florida", "Country": "USA", "Phone Numb": "(904) 244-4000", "Licensed B": "623", "display_na": "655, West 8th Street, Jacksonville, Duval County, Florida, 32209, United States", "category": "place", "type_1": "house", "latlong": "30.34674182653061,-81.66494490816326", "NAME": "Duval", "Geographic": "Census Tract 16; Duval County; Florida", "x": -81.664944908199999, "y": 30.346741826500001 }, "geometry": { "type": "Point", "coordinates": [ 436091.019649390596896, 3357395.54015999333933 ] } },
{ "type": "Feature", "properties": { "File Numbe": "100016", "Facility": "KINDRED HOSPITAL-NORTH FLORIDA", "Type": "Hospital", "Street Add": "801 OAK ST", "City": "GREEN COVE SPRINGS", "Zip": "32043", "State": "Florida", "Country": "USA", "Phone Numb": "(904) 297-9505", "Licensed B": "73", "display_na": "801, Oak Street, Riverside, Brooklyn, Jacksonville, Duval County, Florida, 32204, United States", "category": "place", "type_1": "house", "latlong": "30.316349,-81.6788801", "NAME": "Duval", "Geographic": "Census Tract 171.02; Duval County; Florida", "x": -81.6788801, "y": 30.316349 }, "geometry": { "type": "Point", "coordinates": [ 434731.500034951721318, 3354035.417683515697718 ] } },
{ "type": "Feature", "properties": { "File Numbe": "100040", "Facility": "ASCENSION ST VINCENT'S RIVERSIDE", "Type": "Hospital", "Street Add": "1 SHIRCLIFF WAY", "City": "JACKSONVILLE", "Zip": "32204", "State": "Florida", "Country": "USA", "Phone Numb": "(904) 308-7300", "Licensed B": "584", "display_na": "Saint Vincent's Medical Center Riverside, 1, Shircliff Way, Riverside, Jacksonville, Duval County, Florida, 32204, United States", "category": "amenity", "type_1": "hospital", "latlong": "30.307424400000002,-81.68996279928885", "NAME": "Duval", "Geographic": "Census Tract 171.01; Duval County; Florida", "x": -81.689962799300005, "y": 30.3074244 }, "geometry": { "type": "Point", "coordinates": [ 433659.957109200418927, 3353052.84239679062739 ] } },
{ "type": "Feature", "properties": { "File Numbe": "100088", "Facility": "BAPTIST MEDICAL CENTER JACKSONVILLE", "Type": "Hospital", "Street Add": "800 PRUDENTIAL DR", "City": "JACKSONVILLE", "Zip": "32207", "State": "Florida", "Country": "USA", "Phone Numb": "(904) 202-2000", "Licensed B": "513", "display_na": "Baptist Medical Center Jacksonville, 800, Prudential Drive, Jacksonville, Duval County, Florida, 32207, United States", "category": "amenity", "type_1": "hospital", "latlong": "30.315937750000003,-81.66325825709765", "NAME": "Duval", "Geographic": "Census Tract 8; Duval County; Florida", "x": -81.663258257099997, "y": 30.31593775 }, "geometry": { "type": "Point", "coordinates": [ 436233.17349807289429, 3353980.964120083022863 ] } },
{ "type": "Feature", "properties": { "File Numbe": "100088", "Facility": "BAPTIST MEDICAL CENTER JACKSONVILLE", "Type": "Hospital", "Street Add": "800 PRUDENTIAL DR", "City": "JACKSONVILLE", "Zip": "32207", "State": "Florida", "Country": "USA", "Phone Numb": "(904) 202-2000", "Licensed B": "513", "display_na": "Emergency Center, 800, Prudential Drive, Jacksonville, Duval County, Florida, 32207, United States", "category": "building", "type_1": "hospital", "latlong": "30.3157992,-81.6645158", "NAME": "Duval", "Geographic": "Census Tract 8; Duval County; Florida", "x": -81.6645158, "y": 30.3157992 }, "geometry": { "type": "Point", "coordinates": [ 436112.17852534953272, 3353966.317583520431072 ] } },
{ "type": "Feature", "properties": { "File Numbe": "100088", "Facility": "BAPTIST MEDICAL CENTER JACKSONVILLE", "Type": "Hospital", "Street Add": "800 PRUDENTIAL DR", "City": "JACKSONVILLE", "Zip": "32207", "State": "Florida", "Country": "USA", "Phone Numb": "(904) 202-2000", "Licensed B": "513", "display_na": "Adult Hospital, 800, Prudential Drive, Jacksonville, Duval County, Florida, 32207, United States", "category": "building", "type_1": "hospital", "latlong": "30.3154346,-81.6648924", "NAME": "Duval", "Geographic": "Census Tract 8; Duval County; Florida", "x": -81.6648924, "y": 30.3154346 }, "geometry": { "type": "Point", "coordinates": [ 436075.733998451207299, 3353926.125700660049915 ] } },
{ "type": "Feature", "properties": { "File Numbe": "100088", "Facility": "BAPTIST MEDICAL CENTER JACKSONVILLE", "Type": "Hospital", "Street Add": "800 PRUDENTIAL DR", "City": "JACKSONVILLE", "Zip": "32207", "State": "Florida", "Country": "USA", "Phone Numb": "(904) 202-2000", "Licensed B": "513", "display_na": "Heart Hospital, 800, Prudential Drive, Jacksonville, Duval County, Florida, 32207, United States", "category": "building", "type_1": "hospital", "latlong": "30.3166195,-81.6646179", "NAME": "Duval", "Geographic": "Census Tract 8; Duval County; Florida", "x": -81.6646179, "y": 30.3166195 }, "geometry": { "type": "Point", "coordinates": [ 436102.894502833660226, 3354057.278349216096103 ] } },
{ "type": "Feature", "properties": { "File Numbe": "100088", "Facility": "BAPTIST MEDICAL CENTER JACKSONVILLE", "Type": "Hospital", "Street Add": "800 PRUDENTIAL DR", "City": "JACKSONVILLE", "Zip": "32207", "State": "Florida", "Country": "USA", "Phone Numb": "(904) 202-2000", "Licensed B": "513", "display_na": "Wolfson Children's Hospital, 800, Prudential Drive, Jacksonville, Duval County, Florida, 32207, United States", "category": "building", "type_1": "hospital", "latlong": "30.3151034,-81.6636324", "NAME": "Duval", "Geographic": "Census Tract 8; Duval County; Florida", "x": -81.6636324, "y": 30.3151034 }, "geometry": { "type": "Point", "coordinates": [ 436196.661353127332404, 3353888.714124963153154 ] } },
{ "type": "Feature", "properties": { "File Numbe": "100088", "Facility": "BAPTIST MEDICAL CENTER JACKSONVILLE", "Type": "Hospital", "Street Add": "800 PRUDENTIAL DR", "City": "JACKSONVILLE", "Zip": "32207", "State": "Florida", "Country": "USA", "Phone Numb": "(904) 202-2000", "Licensed B": "513", "display_na": "Behavioral Health Center, 800, Prudential Drive, Jacksonville, Duval County, Florida, 32207, United States", "category": "building", "type_1": "hospital", "latlong": "30.3148573,-81.6656773", "NAME": "Duval", "Geographic": "Census Tract 8; Duval County; Florida", "x": -81.6656773, "y": 30.3148573 }, "geometry": { "type": "Point", "coordinates": [ 435999.895062747353222, 3353862.593286698684096 ] } },
{ "type": "Feature", "properties": { "File Numbe": "100117", "Facility": "BAPTIST MEDICAL CENTER - BEACHES", "Type": "Hospital", "Street Add": "1350 13TH AVE S", "City": "JACKSONVILLE BEACH", "Zip": "32250", "State": "Florida", "Country": "USA", "Phone Numb": "(904) 627-2900", "Licensed B": "146", "display_na": "Baptist Medical Center Beaches, 1350, 13th Avenue South, Oceanside Park, Jacksonville Beach, Duval County, Florida, 32250, United States", "category": "amenity", "type_1": "hospital", "latlong": "30.27359165,-81.39908938501941", "NAME": "Duval", "Geographic": "Census Tract 142.04; Duval County; Florida", "x": -81.399089384999996, "y": 30.27359165 }, "geometry": { "type": "Point", "coordinates": [ 461614.619547022331972, 3349169.550846303813159 ] } },
{ "type": "Feature", "properties": { "File Numbe": "100117", "Facility": "BAPTIST MEDICAL CENTER - BEACHES", "Type": "Hospital", "Street Add": "1350 13TH AVE S", "City": "JACKSONVILLE BEACH", "Zip": "32250", "State": "Florida", "Country": "USA", "Phone Numb": "(904) 627-2900", "Licensed B": "146", "display_na": "1350, 13th Avenue South, Oceanside Park, Jacksonville Beach, Duval County, Florida, 32250, United States", "category": "place", "type_1": "house", "latlong": "30.2739924,-81.39858", "NAME": "Duval", "Geographic": "Census Tract 142.04; Duval County; Florida", "x": -81.39858, "y": 30.2739924 }, "geometry": { "type": "Point", "coordinates": [ 461663.769564318470657, 3349213.787643678020686 ] } },
{ "type": "Feature", "properties": { "File Numbe": "100151", "Facility": "MAYO CLINIC", "Type": "Hospital", "Street Add": "4500 SAN PABLO RD S", "City": "JACKSONVILLE", "Zip": "32224-1865", "State": "Florida", "Country": "USA", "Phone Numb": "(904) 953-2000", "Licensed B": "307", "display_na": "4500, San Pablo Road South, Isle of Palms South, Jacksonville, Duval County, Florida, 32224, United States", "category": "place", "type_1": "house", "latlong": "30.2651818,-81.4417145", "NAME": "Duval", "Geographic": "Census Tract 144.22; Duval County; Florida", "x": -81.4417145, "y": 30.2651818 }, "geometry": { "type": "Point", "coordinates": [ 457511.173200530349277, 3348252.784865957219154 ] } },
{ "type": "Feature", "properties": { "File Numbe": "100151", "Facility": "MAYO CLINIC", "Type": "Hospital", "Street Add": "4500 SAN PABLO RD S", "City": "JACKSONVILLE", "Zip": "32224-1865", "State": "Florida", "Country": "USA", "Phone Numb": "(904) 953-2000", "Licensed B": "307", "display_na": "Mayo Clinic Emergency Room, 4500, San Pablo Road South, Isle of Palms South, Jacksonville, Duval County, Florida, 32224, United States", "category": "amenity", "type_1": "hospital", "latlong": "30.2647339,-81.4406822", "NAME": "Duval", "Geographic": "Census Tract 144.22; Duval County; Florida", "x": -81.4406822, "y": 30.2647339 }, "geometry": { "type": "Point", "coordinates": [ 457610.279425756074488, 3348202.765798697248101 ] } },
{ "type": "Feature", "properties": { "File Numbe": "100179", "Facility": "HCA FLORIDA MEMORIAL HOSPITAL", "Type": "Hospital", "Street Add": "3625 UNIVERSITY BLVD S", "City": "JACKSONVILLE", "Zip": "32216", "State": "Florida", "Country": "USA", "Phone Numb": "(904) 702-6111", "Licensed B": "454", "display_na": "Memorial Hospital, 3625, University Boulevard South, Englewood, Jacksonville, Duval County, Florida, 32216, United States", "category": "amenity", "type_1": "hospital", "latlong": "30.2881412,-81.6011302447993", "NAME": "Duval", "Geographic": "Census Tract 160.01; Duval County; Florida", "x": -81.601130244800004, "y": 30.2881412 }, "geometry": { "type": "Point", "coordinates": [ 442190.078049139818177, 3350867.386044351849705 ] } },
{ "type": "Feature", "properties": { "File Numbe": "100184", "Facility": "BROOKS REHABILITATION HOSPITAL UNIVERSITY CAMPUS", "Type": "Hospital", "Street Add": "3599 UNIVERSITY BLVD S", "City": "JACKSONVILLE", "Zip": "32216-4252", "State": "Florida", "Country": "USA", "Phone Numb": "(904) 345-7600", "Licensed B": "170", "display_na": "Brooks Rehabilitation Hospital, 3599, University Boulevard South, Englewood, Jacksonville, Duval County, Florida, 32216, United States", "category": "amenity", "type_1": "hospital", "latlong": "30.2902563,-81.6011984", "NAME": "Duval", "Geographic": "Census Tract 160.01; Duval County; Florida", "x": -81.6011984, "y": 30.2902563 }, "geometry": { "type": "Point", "coordinates": [ 442184.764011432998814, 3351101.80766767077148 ] } },
{ "type": "Feature", "properties": { "File Numbe": "100196", "Facility": "PAM HEALTH SPECIALTY HOSPITAL OF JACKSONVILLE", "Type": "Hospital", "Street Add": "4901 RICHARD ST", "City": "JACKSONVILLE", "Zip": "32207", "State": "Florida", "Country": "USA", "Phone Numb": "(904) 425-0500", "Licensed B": "107", "display_na": "Specialty Hospital Jacksonville, 4901, Richard Street, Englewood, Jacksonville, Duval County, Florida, 32207, United States", "category": "amenity", "type_1": "hospital", "latlong": "30.27148,-81.61587", "NAME": "Duval", "Geographic": "Census Tract 162; Duval County; Florida", "x": -81.61587, "y": 30.27148 }, "geometry": { "type": "Point", "coordinates": [ 440762.54080580547452, 3349028.651596922893077 ] } },
{ "type": "Feature", "properties": { "File Numbe": "104016", "Facility": "RIVER POINT BEHAVIORAL HEALTH", "Type": "Hospital", "Street Add": "6300 BEACH BLVD", "City": "JACKSONVILLE", "Zip": "32216", "State": "Florida", "Country": "USA", "Phone Numb": "(904) 724-9202", "Licensed B": "84", "display_na": "6300, Beach Boulevard, Jacksonville, Duval County, Florida, 32216, United States", "category": "place", "type_1": "house", "latlong": "30.2903059,-81.5970676", "NAME": "Duval", "Geographic": "Census Tract 160.01; Duval County; Florida", "x": -81.5970676, "y": 30.2903059 }, "geometry": { "type": "Point", "coordinates": [ 442582.045240676961839, 3351105.20886266278103 ] } },
{ "type": "Feature", "properties": { "File Numbe": "23960052", "Facility": "BAPTIST MEDICAL CENTER SOUTH", "Type": "Hospital", "Street Add": "14550 OLD ST AUGUSTINE RD", "City": "JACKSONVILLE", "Zip": "32258", "State": "Florida", "Country": "USA", "Phone Numb": "(904) 271-6000", "Licensed B": "357", "display_na": "Baptist Medical Center South, 14550, Old Saint Augustine Road, Bayard, Jacksonville, Duval County, Florida, 32258, United States", "category": "amenity", "type_1": "hospital", "latlong": "30.13846595,-81.53457879765494", "NAME": "Duval", "Geographic": "Census Tract 144.23; Duval County; Florida", "x": -81.534578797699993, "y": 30.13846595 }, "geometry": { "type": "Point", "coordinates": [ 448512.466442915203515, 3334249.264471392147243 ] } },
{ "type": "Feature", "properties": { "File Numbe": "23960052", "Facility": "BAPTIST MEDICAL CENTER SOUTH", "Type": "Hospital", "Street Add": "14550 OLD ST AUGUSTINE RD", "City": "JACKSONVILLE", "Zip": "32258", "State": "Florida", "Country": "USA", "Phone Numb": "(904) 271-6000", "Licensed B": "357", "display_na": "14550, Old Saint Augustine Road, Jacksonville, Duval County, Florida, 32258, United States", "category": "place", "type_1": "house", "latlong": "30.1380062,-81.5346766", "NAME": "Duval", "Geographic": "Census Tract 144.23; Duval County; Florida", "x": -81.5346766, "y": 30.1380062 }, "geometry": { "type": "Point", "coordinates": [ 448502.807839625515044, 3334198.362400058656931 ] } },
{ "type": "Feature", "properties": { "File Numbe": "23960061", "Facility": "WEKIVA SPRINGS CENTER", "Type": "Hospital", "Street Add": "3947 SALISBURY RD", "City": "JACKSONVILLE", "Zip": "32216", "State": "Florida", "Country": "USA", "Phone Numb": "(904) 296-3533", "Licensed B": "120", "display_na": "Wekiva Springs, 3947, Salisbury Road, Jacksonville, Duval County, Florida, 32216, United States", "category": "amenity", "type_1": "hospital", "latlong": "30.2580283,-81.595717", "NAME": "Duval", "Geographic": "Census Tract 159.24; Duval County; Florida", "x": -81.595717, "y": 30.2580283 }, "geometry": { "type": "Point", "coordinates": [ 442693.180840582121164, 3347527.662071387749165 ] } },
{ "type": "Feature", "properties": { "File Numbe": "23960061", "Facility": "WEKIVA SPRINGS CENTER", "Type": "Hospital", "Street Add": "3947 SALISBURY RD", "City": "JACKSONVILLE", "Zip": "32216", "State": "Florida", "Country": "USA", "Phone Numb": "(904) 296-3533", "Licensed B": "120", "display_na": "3947, Salisbury Road, Jacksonville, Duval County, Florida, 32216, United States", "category": "place", "type_1": "house", "latlong": "30.2575041,-81.596108", "NAME": "Duval", "Geographic": "Census Tract 159.24; Duval County; Florida", "x": -81.596108, "y": 30.2575041 }, "geometry": { "type": "Point", "coordinates": [ 442655.262181247817352, 3347469.769759467337281 ] } },
{ "type": "Feature", "properties": { "File Numbe": "23960088", "Facility": "ASCENSION ST VINCENT'S SOUTHSIDE", "Type": "Hospital", "Street Add": "4201 BELFORT RD", "City": "JACKSONVILLE", "Zip": "32216", "State": "Florida", "Country": "USA", "Phone Numb": "(904) 296-3700", "Licensed B": "295", "display_na": "Saint Vincent’s Medical Center Southside, 4201, Belfort Road, Jacksonville, Duval County, Florida, 32216, United States", "category": "amenity", "type_1": "hospital", "latlong": "30.2542194,-81.58169746509087", "NAME": "Duval", "Geographic": "Census Tract 159.29; Duval County; Florida", "x": -81.581697465100007, "y": 30.2542194 }, "geometry": { "type": "Point", "coordinates": [ 444039.696888642560225, 3347098.594865619204938 ] } },
{ "type": "Feature", "properties": { "File Numbe": "23960088", "Facility": "ASCENSION ST VINCENT'S SOUTHSIDE", "Type": "Hospital", "Street Add": "4201 BELFORT RD", "City": "JACKSONVILLE", "Zip": "32216", "State": "Florida", "Country": "USA", "Phone Numb": "(904) 296-3700", "Licensed B": "295", "display_na": "4201, Belfort Road, Jacksonville, Duval County, Florida, 32216, United States", "category": "place", "type_1": "house", "latlong": "30.25351164117647,-81.58421403529412", "NAME": "Duval", "Geographic": "Census Tract 159.24; Duval County; Florida", "x": -81.584214035299993, "y": 30.253511641199999 }, "geometry": { "type": "Point", "coordinates": [ 443797.191390489053447, 3347021.405529206153005 ] } },
{ "type": "Feature", "properties": { "File Numbe": "23960157", "Facility": "WOLFSON CHILDREN'S HOSPITAL", "Type": "Hospital", "Street Add": "800 PRUDENTIAL DR", "City": "JACKSONVILLE", "Zip": "32207", "State": "Florida", "Country": "USA", "Phone Numb": "(904) 202-8000", "Licensed B": "257", "display_na": "Baptist Medical Center Jacksonville, 800, Prudential Drive, Jacksonville, Duval County, Florida, 32207, United States", "category": "amenity", "type_1": "hospital", "latlong": "30.315937750000003,-81.66325825709765", "NAME": "Duval", "Geographic": "Census Tract 8; Duval County; Florida", "x": -81.663258257099997, "y": 30.31593775 }, "geometry": { "type": "Point", "coordinates": [ 436233.17349807289429, 3353980.964120083022863 ] } },
{ "type": "Feature", "properties": { "File Numbe": "23960157", "Facility": "WOLFSON CHILDREN'S HOSPITAL", "Type": "Hospital", "Street Add": "800 PRUDENTIAL DR", "City": "JACKSONVILLE", "Zip": "32207", "State": "Florida", "Country": "USA", "Phone Numb": "(904) 202-8000", "Licensed B": "257", "display_na": "Emergency Center, 800, Prudential Drive, Jacksonville, Duval County, Florida, 32207, United States", "category": "building", "type_1": "hospital", "latlong": "30.3157992,-81.6645158", "NAME": "Duval", "Geographic": "Census Tract 8; Duval County; Florida", "x": -81.6645158, "y": 30.3157992 }, "geometry": { "type": "Point", "coordinates": [ 436112.17852534953272, 3353966.317583520431072 ] } },
{ "type": "Feature", "properties": { "File Numbe": "23960157", "Facility": "WOLFSON CHILDREN'S HOSPITAL", "Type": "Hospital", "Street Add": "800 PRUDENTIAL DR", "City": "JACKSONVILLE", "Zip": "32207", "State": "Florida", "Country": "USA", "Phone Numb": "(904) 202-8000", "Licensed B": "257", "display_na": "Adult Hospital, 800, Prudential Drive, Jacksonville, Duval County, Florida, 32207, United States", "category": "building", "type_1": "hospital", "latlong": "30.3154346,-81.6648924", "NAME": "Duval", "Geographic": "Census Tract 8; Duval County; Florida", "x": -81.6648924, "y": 30.3154346 }, "geometry": { "type": "Point", "coordinates": [ 436075.733998451207299, 3353926.125700660049915 ] } },
{ "type": "Feature", "properties": { "File Numbe": "23960157", "Facility": "WOLFSON CHILDREN'S HOSPITAL", "Type": "Hospital", "Street Add": "800 PRUDENTIAL DR", "City": "JACKSONVILLE", "Zip": "32207", "State": "Florida", "Country": "USA", "Phone Numb": "(904) 202-8000", "Licensed B": "257", "display_na": "Heart Hospital, 800, Prudential Drive, Jacksonville, Duval County, Florida, 32207, United States", "category": "building", "type_1": "hospital", "latlong": "30.3166195,-81.6646179", "NAME": "Duval", "Geographic": "Census Tract 8; Duval County; Florida", "x": -81.6646179, "y": 30.3166195 }, "geometry": { "type": "Point", "coordinates": [ 436102.894502833660226, 3354057.278349216096103 ] } },
{ "type": "Feature", "properties": { "File Numbe": "23960157", "Facility": "WOLFSON CHILDREN'S HOSPITAL", "Type": "Hospital", "Street Add": "800 PRUDENTIAL DR", "City": "JACKSONVILLE", "Zip": "32207", "State": "Florida", "Country": "USA", "Phone Numb": "(904) 202-8000", "Licensed B": "257", "display_na": "Wolfson Children's Hospital, 800, Prudential Drive, Jacksonville, Duval County, Florida, 32207, United States", "category": "building", "type_1": "hospital", "latlong": "30.3151034,-81.6636324", "NAME": "Duval", "Geographic": "Census Tract 8; Duval County; Florida", "x": -81.6636324, "y": 30.3151034 }, "geometry": { "type": "Point", "coordinates": [ 436196.661353127332404, 3353888.714124963153154 ] } },
{ "type": "Feature", "properties": { "File Numbe": "23960157", "Facility": "WOLFSON CHILDREN'S HOSPITAL", "Type": "Hospital", "Street Add": "800 PRUDENTIAL DR", "City": "JACKSONVILLE", "Zip": "32207", "State": "Florida", "Country": "USA", "Phone Numb": "(904) 202-8000", "Licensed B": "257", "display_na": "Behavioral Health Center, 800, Prudential Drive, Jacksonville, Duval County, Florida, 32207, United States", "category": "building", "type_1": "hospital", "latlong": "30.3148573,-81.6656773", "NAME": "Duval", "Geographic": "Census Tract 8; Duval County; Florida", "x": -81.6656773, "y": 30.3148573 }, "geometry": { "type": "Point", "coordinates": [ 435999.895062747353222, 3353862.593286698684096 ] } },
{ "type": "Feature", "properties": { "File Numbe": "23960176", "Facility": "ENCOMPASS HEALTH REHABILITATION HOSPITAL OF JACKSONVILLE", "Type": "Hospital", "Street Add": "11595 BURNT MILL ROAD", "City": "JACKSONVILLE", "Zip": "32256", "State": "Florida", "Country": "USA", "Phone Numb": "(904) 596-5000", "Licensed B": "50", "display_na": "Burnt Mill Road, Jacksonville, Duval County, Florida, 32255, United States", "category": "highway", "type_1": "tertiary", "latlong": "30.2416635,-81.5338277", "NAME": "Duval", "Geographic": "Census Tract 144.17; Duval County; Florida", "x": -81.5338277, "y": 30.2416635 }, "geometry": { "type": "Point", "coordinates": [ 448638.389737086661626, 3345684.628663771785796 ] } },
{ "type": "Feature", "properties": { "File Numbe": "23960176", "Facility": "ENCOMPASS HEALTH REHABILITATION HOSPITAL OF JACKSONVILLE", "Type": "Hospital", "Street Add": "11595 BURNT MILL ROAD", "City": "JACKSONVILLE", "Zip": "32256", "State": "Florida", "Country": "USA", "Phone Numb": "(904) 596-5000", "Licensed B": "50", "display_na": "Burnt Mill Road, Jacksonville, Duval County, Florida, 32256, United States", "category": "highway", "type_1": "residential", "latlong": "30.2420582,-81.5190032", "NAME": "Duval", "Geographic": "Census Tract 144.17; Duval County; Florida", "x": -81.5190032, "y": 30.2420582 }, "geometry": { "type": "Point", "coordinates": [ 450064.930927711771801, 3345721.76673925248906 ] } },
{ "type": "Feature", "properties": { "File Numbe": "23960176", "Facility": "ENCOMPASS HEALTH REHABILITATION HOSPITAL OF JACKSONVILLE", "Type": "Hospital", "Street Add": "11595 BURNT MILL ROAD", "City": "JACKSONVILLE", "Zip": "32256", "State": "Florida", "Country": "USA", "Phone Numb": "(904) 596-5000", "Licensed B": "50", "display_na": "Burnt Mill Road, Jacksonville, Duval County, Florida, United States", "category": "highway", "type_1": "residential", "latlong": "30.24211605,-81.51872086576826", "NAME": "Duval", "Geographic": "Census Tract 144.17; Duval County; Florida", "x": -81.518720865800006, "y": 30.24211605 }, "geometry": { "type": "Point", "coordinates": [ 450092.12486799567705, 3345728.053452712018043 ] } },
{ "type": "Feature", "properties": { "File Numbe": "23960176", "Facility": "ENCOMPASS HEALTH REHABILITATION HOSPITAL OF JACKSONVILLE", "Type": "Hospital", "Street Add": "11595 BURNT MILL ROAD", "City": "JACKSONVILLE", "Zip": "32256", "State": "Florida", "Country": "USA", "Phone Numb": "(904) 596-5000", "Licensed B": "50", "display_na": "Burnt Mill Road, Jacksonville, Duval County, Florida, 32256, United States", "category": "highway", "type_1": "tertiary", "latlong": "30.2414493,-81.5249723", "NAME": "Duval", "Geographic": "Census Tract 144.17; Duval County; Florida", "x": -81.5249723, "y": 30.2414493 }, "geometry": { "type": "Point", "coordinates": [ 449490.304128791380208, 3345656.927110868506134 ] } },
{ "type": "Feature", "properties": { "File Numbe": "23960206", "Facility": "GENESIS REHABILITATION HOSPITAL", "Type": "Hospital", "Street Add": "6400 BROOKS BARTRAM DRIVE", "City": "JACKSONVILLE", "Zip": "32258", "State": "Florida", "Country": "USA", "Phone Numb": "(904) 809-8080", "Licensed B": "60", "display_na": "6400, Brooks Bartram Drive, Jacksonville, Duval County, Florida, 32258, United States", "category": "place", "type_1": "house", "latlong": "30.1341905,-81.5351029", "NAME": "Duval", "Geographic": "Census Tract 168.12; Duval County; Florida", "x": -81.5351029, "y": 30.1341905 }, "geometry": { "type": "Point", "coordinates": [ 448459.76566755323438, 3333775.726415218785405 ] } },
{ "type": "Feature", "properties": { "File Numbe": "22910030", "Facility": "COMMUNITY HOSPICE OF NORTHEAST FLORIDA INC", "Type": "Hospice", "Street Add": "4266 SUNBEAM ROAD", "City": "JACKSONVILLE", "Zip": "32257-6030", "State": "Florida", "Country": "USA", "Phone Numb": "(904) 268-5200", "Licensed B": "0", "display_na": "Community Hospice and Palliative Care, 4266, Sunbeam Road, Jacksonville, Duval County, Florida, 32257, United States", "category": "building", "type_1": "hospital", "latlong": "30.20426745,-81.60578201949176", "NAME": "Duval", "Geographic": "Census Tract 167.31; Duval County; Florida", "x": -81.605782019499998, "y": 30.20426745 }, "geometry": { "type": "Point", "coordinates": [ 441693.212685540085658, 3341575.26493049133569 ] } },
{ "type": "Feature", "properties": { "File Numbe": "4943", "Facility": "CARESPOT EXPRESS HEALTHCARE", "Type": "Health Care Clinic", "Street Add": "410 ATLANTIC BLVD", "City": "NEPTUNE BEACH", "Zip": "32266", "State": "Florida", "Country": "USA", "Phone Numb": "(904) 241-0117", "Licensed B": "0", "display_na": "410, Atlantic Boulevard, Neptune Beach, Duval County, Florida, 32266, United States", "category": "place", "type_1": "house", "latlong": "30.3241164,-81.3992236", "NAME": "Duval", "Geographic": "Census Tract 140.01; Duval County; Florida", "x": -81.3992236, "y": 30.3241164 }, "geometry": { "type": "Point", "coordinates": [ 461621.392423294601031, 3354768.470190953463316 ] } },
{ "type": "Feature", "properties": { "File Numbe": "4943", "Facility": "CARESPOT EXPRESS HEALTHCARE", "Type": "Health Care Clinic", "Street Add": "410 ATLANTIC BLVD", "City": "NEPTUNE BEACH", "Zip": "32266", "State": "Florida", "Country": "USA", "Phone Numb": "(904) 241-0117", "Licensed B": "0", "display_na": "410, Atlantic Boulevard, Atlantic Beach, Duval County, Florida, 32233, United States", "category": "place", "type_1": "house", "latlong": "30.32469815082814,-81.39981140115162", "NAME": "Duval", "Geographic": "Census Tract 139.06; Duval County; Florida", "x": -81.399811401199997, "y": 30.3246981508 }, "geometry": { "type": "Point", "coordinates": [ 461565.11194685875671, 3354833.135801995173097 ] } },
{ "type": "Feature", "properties": { "File Numbe": "4944", "Facility": "CARESPOT EXPRESS HEALTHCARE", "Type": "Health Care Clinic", "Street Add": "12303 SAN JOSE BLVD", "City": "JACKSONVILLE", "Zip": "32223", "State": "Florida", "Country": "USA", "Phone Numb": "(904) 288-0277", "Licensed B": "0", "display_na": "12303, San Jose Boulevard, Jacksonville, Duval County, Florida, 32223, United States", "category": "place", "type_1": "house", "latlong": "30.146873220191665,-81.63251844737312", "NAME": "Duval", "Geographic": "Census Tract 168.03; Duval County; Florida", "x": -81.632518447400003, "y": 30.1468732202 }, "geometry": { "type": "Point", "coordinates": [ 439084.47484575182898, 3335229.146967304404825 ] } },
{ "type": "Feature", "properties": { "File Numbe": "4947", "Facility": "CARESPOT EXPRESS HEALTHCARE", "Type": "Health Care Clinic", "Street Add": "2032 DUNN AVENUE", "City": "JACKSONVILLE", "Zip": "32218", "State": "Florida", "Country": "USA", "Phone Numb": "(904) 757-2008", "Licensed B": "0", "display_na": "2032, Dunn Avenue, Jacksonville, Duval County, Florida, 32218, United States", "category": "place", "type_1": "house", "latlong": "30.43821136015698,-81.67678932037522", "NAME": "Duval", "Geographic": "Census Tract 103.06; Duval County; Florida", "x": -81.676789320400005, "y": 30.4382113602 }, "geometry": { "type": "Point", "coordinates": [ 435013.186309030745178, 3367538.795297021511942 ] } },
{ "type": "Feature", "properties": { "File Numbe": "4947", "Facility": "CARESPOT EXPRESS HEALTHCARE", "Type": "Health Care Clinic", "Street Add": "2032 DUNN AVENUE", "City": "JACKSONVILLE", "Zip": "32218", "State": "Florida", "Country": "USA", "Phone Numb": "(904) 757-2008", "Licensed B": "0", "display_na": "2032, Dunn Avenue, Garden City, Jacksonville, Duval County, Florida, 32218, United States", "category": "place", "type_1": "house", "latlong": "30.43897660306774,-81.67797715231121", "NAME": "Duval", "Geographic": "Census Tract 103.05; Duval County; Florida", "x": -81.677977152300002, "y": 30.438976603099999 }, "geometry": { "type": "Point", "coordinates": [ 434899.633839947520755, 3367624.28219224140048 ] } },
{ "type": "Feature", "properties": { "File Numbe": "4948", "Facility": "CARESPOT EXPRESS HEALTHCARE", "Type": "Health Care Clinic", "Street Add": "2401 MONUMENT RD", "City": "JACKSONVILLE", "Zip": "32225", "State": "Florida", "Country": "USA", "Phone Numb": "(904) 642-0337", "Licensed B": "0", "display_na": "2401, Monument Road, Jacksonville, Duval County, Florida, 32225, United States", "category": "place", "type_1": "house", "latlong": "30.358096,-81.503266", "NAME": "Duval", "Geographic": "Census Tract 143.28; Duval County; Florida", "x": -81.503266, "y": 30.358096 }, "geometry": { "type": "Point", "coordinates": [ 451636.0666875015595, 3358573.725434127729386 ] } },
{ "type": "Feature", "properties": { "File Numbe": "7419", "Facility": "CONCENTRA MEDICAL CENTERS", "Type": "Health Care Clinic", "Street Add": "1524 NORMANDY VILLAGE PKWY", "City": "JACKSONVILLE", "Zip": "32221", "State": "Florida", "Country": "USA", "Phone Numb": "(904) 482-1400", "Licensed B": "0", "display_na": "1524, Normandy Village Parkway, Jacksonville, Duval County, Florida, 32221, United States", "category": "place", "type_1": "house", "latlong": "30.29402483969324,-81.77522089821056", "NAME": "Duval", "Geographic": "Census Tract 127.03; Duval County; Florida", "x": -81.775220898200004, "y": 30.2940248397 }, "geometry": { "type": "Point", "coordinates": [ 425452.005006842548028, 3351620.825679842382669 ] } },
{ "type": "Feature", "properties": { "File Numbe": "9085", "Facility": "CARESPOT EXPRESS HEALTHCARE", "Type": "Health Care Clinic", "Street Add": "4498 HENDRICKS AVENUE", "City": "JACKSONVILLE", "Zip": "32207", "State": "Florida", "Country": "USA", "Phone Numb": "(904) 854-1730", "Licensed B": "0", "display_na": "4498, Hendricks Avenue, Jacksonville, Duval County, Florida, 32207, United States", "category": "place", "type_1": "house", "latlong": "30.274697,-81.650214", "NAME": "Duval", "Geographic": "Census Tract 164; Duval County; Florida", "x": -81.650214, "y": 30.274697 }, "geometry": { "type": "Point", "coordinates": [ 437461.134162322443444, 3349403.547134938184172 ] } },
{ "type": "Feature", "properties": { "File Numbe": "9138", "Facility": "CARESPOT EXPRESS HEALTHCARE", "Type": "Health Care Clinic", "Street Add": "1021 CESERY BLVD", "City": "JACKSONVILLE", "Zip": "32211", "State": "Florida", "Country": "USA", "Phone Numb": "(904) 743-2466", "Licensed B": "0", "display_na": "1021, Cesery Boulevard, Arlington, Jacksonville, Duval County, Florida, 32211, United States", "category": "place", "type_1": "house", "latlong": "30.331426330746744,-81.59689583204137", "NAME": "Duval", "Geographic": "Census Tract 154; Duval County; Florida", "x": -81.596895832000001, "y": 30.331426330700001 }, "geometry": { "type": "Point", "coordinates": [ 442622.523448024236131, 3355661.937169331125915 ] } },
{ "type": "Feature", "properties": { "File Numbe": "10636", "Facility": "CARESPOT EXPRESS HEALTHCARE", "Type": "Health Care Clinic", "Street Add": "1708 BLANDING BLVD", "City": "MIDDLEBURG", "Zip": "32068", "State": "Florida", "Country": "USA", "Phone Numb": "(904) 406-8240", "Licensed B": "0", "display_na": "1708, Blanding Boulevard, Jacksonville, Duval County, Florida, 32210, United States", "category": "place", "type_1": "house", "latlong": "30.2881486886339,-81.7242301874507", "NAME": "Duval", "Geographic": "Census Tract 123; Duval County; Florida", "x": -81.724230187499998, "y": 30.2881486886 }, "geometry": { "type": "Point", "coordinates": [ 430351.434724004357122, 3350937.277163736056536 ] } },
{ "type": "Feature", "properties": { "File Numbe": "10636", "Facility": "CARESPOT EXPRESS HEALTHCARE", "Type": "Health Care Clinic", "Street Add": "1708 BLANDING BLVD", "City": "MIDDLEBURG", "Zip": "32068", "State": "Florida", "Country": "USA", "Phone Numb": "(904) 406-8240", "Licensed B": "0", "display_na": "1708, Blanding Boulevard, Lake Shore, Jacksonville, Duval County, Florida, 32210, United States", "category": "place", "type_1": "house", "latlong": "30.286730357142858,-81.72427178571428", "NAME": "Duval", "Geographic": "Census Tract 123; Duval County; Florida", "x": -81.724271785699997, "y": 30.286730357100001 }, "geometry": { "type": "Point", "coordinates": [ 430346.432053921860643, 3350780.126945699565113 ] } },
{ "type": "Feature", "properties": { "File Numbe": "11450", "Facility": "ALLIANCE SPINE & JOINT II, INC", "Type": "Health Care Clinic", "Street Add": "1740 EDGEWOOD AVE W", "City": "JACKSONVILLE", "Zip": "32208-3260", "State": "Florida", "Country": "USA", "Phone Numb": "(904) 600-4886", "Licensed B": "0", "display_na": "1740, Edgewood Avenue West, Lake Forest Hills, Jacksonville, Duval County, Florida, 32208, United States", "category": "place", "type_1": "house", "latlong": "30.386827662275042,-81.68613968554506", "NAME": "Duval", "Geographic": "Census Tract 115; Duval County; Florida", "x": -81.686139685499995, "y": 30.3868276623 }, "geometry": { "type": "Point", "coordinates": [ 434080.800918818393257, 3361849.916488358750939 ] } },
{ "type": "Feature", "properties": { "File Numbe": "11591", "Facility": "VK MEDICAL GROUP LLC", "Type": "Health Care Clinic", "Street Add": "9250 CYPRESS GREEN DR", "City": "JACKSONVILLE", "Zip": "32256", "State": "Florida", "Country": "USA", "Phone Numb": "(904) 269-2437", "Licensed B": "0", "display_na": "9250, Cypress Green Drive, Lofts at Baymeadows, Jacksonville, Duval County, Florida, 32256, United States", "category": "place", "type_1": "house", "latlong": "30.2232064,-81.5671881", "NAME": "Duval", "Geographic": "Census Tract 159.26; Duval County; Florida", "x": -81.5671881, "y": 30.2232064 }, "geometry": { "type": "Point", "coordinates": [ 445418.412200121209025, 3343654.843307352159172 ] } },
{ "type": "Feature", "properties": { "File Numbe": "12313", "Facility": "VALUECARE CLINIC", "Type": "Health Care Clinic", "Street Add": "2732 TROLLIE LN", "City": "JACKSONVILLE", "Zip": "32211-3833", "State": "Florida", "Country": "USA", "Phone Numb": "(904) 289-1254", "Licensed B": "0", "display_na": "2732, Trollie Lane, Trollie Lane Apartments, Jacksonville, Duval County, Florida, 32211, United States", "category": "place", "type_1": "house", "latlong": "30.350927918042572,-81.59817012221278", "NAME": "Duval", "Geographic": "Census Tract 152; Duval County; Florida", "x": -81.598170122200003, "y": 30.350927918 }, "geometry": { "type": "Point", "coordinates": [ 442511.425838835421018, 3357823.686774637550116 ] } },
{ "type": "Feature", "properties": { "File Numbe": "12335", "Facility": "BOLD CITY THERAPY AND WELLNESS LLC", "Type": "Health Care Clinic", "Street Add": "1605 KING STREET", "City": "JACKSONVILLE", "Zip": "32204", "State": "Florida", "Country": "USA", "Phone Numb": "(352) 895-4854", "Licensed B": "0", "display_na": "1605, King Street, Jacksonville, Duval County, Florida, 32204, United States", "category": "place", "type_1": "house", "latlong": "30.3097946,-81.6927464", "NAME": "Duval", "Geographic": "Census Tract 171.01; Duval County; Florida", "x": -81.6927464, "y": 30.3097946 }, "geometry": { "type": "Point", "coordinates": [ 433393.909719832765404, 3353317.131463377270848 ] } },
{ "type": "Feature", "properties": { "File Numbe": "12604", "Facility": "VALUECARE CLINIC", "Type": "Health Care Clinic", "Street Add": "2789 PARK ST", "City": "JACKSONVILLE", "Zip": "32205-7607", "State": "Florida", "Country": "USA", "Phone Numb": "(904) 289-1254", "Licensed B": "0", "display_na": "2789, Park Street, Avondale, Jacksonville, Duval County, Florida, 32205, United States", "category": "place", "type_1": "house", "latlong": "30.3092221,-81.6962228", "NAME": "Duval", "Geographic": "Census Tract 21.01; Duval County; Florida", "x": -81.6962228, "y": 30.3092221 }, "geometry": { "type": "Point", "coordinates": [ 433059.264075150422286, 3353255.733327563852072 ] } },
{ "type": "Feature", "properties": { "File Numbe": "14662", "Facility": "MAXCARE CLINIC LLC", "Type": "Health Care Clinic", "Street Add": "5547 NORMANDY BLVD", "City": "JACKSONVILLE", "Zip": "32205", "State": "Florida", "Country": "USA", "Phone Numb": "(904) 386-6785", "Licensed B": "0", "display_na": "5547, Normandy Boulevard, Jacksonville, Duval County, Florida, 32205, United States", "category": "place", "type_1": "house", "latlong": "30.309171,-81.7429385", "NAME": "Duval", "Geographic": "Census Tract 121; Duval County; Florida", "x": -81.7429385, "y": 30.309171 }, "geometry": { "type": "Point", "coordinates": [ 428567.464817282510921, 3353278.541436682920903 ] } },
{ "type": "Feature", "properties": { "File Numbe": "15541", "Facility": "PRECISION IMAGING CENTERS", "Type": "Health Care Clinic", "Street Add": "10696 OLD ST AUGUSTINE RD", "City": "JACKSONVILLE", "Zip": "32257", "State": "Florida", "Country": "USA", "Phone Numb": "(904) 996-8100", "Licensed B": "0", "display_na": "10696, Old Saint Augustine Road, Jacksonville, Duval County, Florida, 32257, United States", "category": "place", "type_1": "house", "latlong": "30.1812606,-81.6073359", "NAME": "Duval", "Geographic": "Census Tract 167.27; Duval County; Florida", "x": -81.6073359, "y": 30.1812606 }, "geometry": { "type": "Point", "coordinates": [ 441530.056718578096479, 3339026.569978333078325 ] } },
{ "type": "Feature", "properties": { "File Numbe": "17930097", "Facility": "MENTAL HEALTH RESOURCE CENTER", "Type": "Crisis Stabilization Unit/ Short Term Residential Treatment Facility", "Street Add": "11820 BEACH BLVD", "City": "JACKSONVILLE", "Zip": "32246", "State": "Florida", "Country": "USA", "Phone Numb": "(904) 642-9100", "Licensed B": "24", "display_na": "11820, Beach Boulevard, Hogan Heights, Beechwood, Jacksonville, Duval County, Florida, 32246, United States", "category": "place", "type_1": "house", "latlong": "30.2862879,-81.5084868", "NAME": "Duval", "Geographic": "Census Tract 144.15; Duval County; Florida", "x": -81.5084868, "y": 30.2862879 }, "geometry": { "type": "Point", "coordinates": [ 451098.685981717775576, 3350618.499284599442035 ] } },
{ "type": "Feature", "properties": { "File Numbe": "17930097", "Facility": "MENTAL HEALTH RESOURCE CENTER", "Type": "Crisis Stabilization Unit/ Short Term Residential Treatment Facility", "Street Add": "11820 BEACH BLVD", "City": "JACKSONVILLE", "Zip": "32246", "State": "Florida", "Country": "USA", "Phone Numb": "(904) 642-9100", "Licensed B": "24", "display_na": "11820, Beach Boulevard, Hogan Heights, Jacksonville, Duval County, Florida, 32246, United States", "category": "place", "type_1": "house", "latlong": "30.28703,-81.50932216694858", "NAME": "Duval", "Geographic": "Census Tract 144.15; Duval County; Florida", "x": -81.509322166900006, "y": 30.28703 }, "geometry": { "type": "Point", "coordinates": [ 451018.716152483713813, 3350701.095057973638177 ] } },
{ "type": "Feature", "properties": { "File Numbe": "100134", "Facility": "ED FRASER MEMORIAL HOSPITAL", "Type": "Hospital", "Street Add": "159 N 3RD ST", "City": "MACCLENNY", "Zip": "32063", "State": "Florida", "Country": "USA", "Phone Numb": "(904) 259-3151", "Licensed B": "25", "display_na": "159, North 3rd Street, Macclenny, Baker County, Florida, 32063, United States", "category": "place", "type_1": "house", "latlong": "30.285988,-82.119401", "NAME": "Baker", "Geographic": "Census Tract 401.01; Baker County; Florida", "x": -82.119401, "y": 30.285988 }, "geometry": { "type": "Point", "coordinates": [ 392343.882677359157242, 3351006.237638713326305 ] } },
{ "type": "Feature", "properties": { "File Numbe": "100134", "Facility": "ED FRASER MEMORIAL HOSPITAL", "Type": "Hospital", "Street Add": "159 N 3RD ST", "City": "MACCLENNY", "Zip": "32063", "State": "Florida", "Country": "USA", "Phone Numb": "(904) 259-3151", "Licensed B": "25", "display_na": "Ed Fraser Memorial Hospital, 159, North 3rd Street, Macclenny, Baker County, Florida, 32063, United States", "category": "amenity", "type_1": "hospital", "latlong": "30.2857586,-82.11888590133526", "NAME": "Baker", "Geographic": "Census Tract 401.01; Baker County; Florida", "x": -82.118885901300004, "y": 30.2857586 }, "geometry": { "type": "Point", "coordinates": [ 392393.173956749844365, 3350980.326670504175127 ] } },
{ "type": "Feature", "properties": { "File Numbe": "104007", "Facility": "NORTHEAST FLORIDA STATE HOSPITAL", "Type": "Hospital", "Street Add": "7487 S STATE RD 121", "City": "MACCLENNY", "Zip": "32063", "State": "Florida", "Country": "USA", "Phone Numb": "(904) 330-2001", "Licensed B": "1138", "display_na": "7487, South State Road 121, Macclenny, Baker County, Florida, 32063, United States", "category": "place", "type_1": "house", "latlong": "30.23653,-82.137744", "NAME": "Baker", "Geographic": "Census Tract 401.02; Baker County; Florida", "x": -82.137744, "y": 30.23653 }, "geometry": { "type": "Point", "coordinates": [ 390524.811377066769637, 3345542.663980272132903 ] } },
{ "type": "Feature", "properties": { "File Numbe": "104007", "Facility": "NORTHEAST FLORIDA STATE HOSPITAL", "Type": "Hospital", "Street Add": "7487 S STATE RD 121", "City": "MACCLENNY", "Zip": "32063", "State": "Florida", "Country": "USA", "Phone Numb": "(904) 330-2001", "Licensed B": "1138", "display_na": "Northeast Florida State Hospital, 7487, South State Road 121, Macclenny, Baker County, Florida, 32063, United States", "category": "amenity", "type_1": "hospital", "latlong": "30.2359039,-82.13504414177788", "NAME": "Baker", "Geographic": "Census Tract 401.02; Baker County; Florida", "x": -82.135044141799995, "y": 30.2359039 }, "geometry": { "type": "Point", "coordinates": [ 390783.919823834323324, 3345470.682605643291026 ] } },
{ "type": "Feature", "properties": { "File Numbe": "104007", "Facility": "NORTHEAST FLORIDA STATE HOSPITAL", "Type": "Hospital", "Street Add": "7487 S STATE RD 121", "City": "MACCLENNY", "Zip": "32063", "State": "Florida", "Country": "USA", "Phone Numb": "(904) 330-2001", "Licensed B": "1138", "display_na": "7487, South State Road 121, Manning, Baker County, Florida, 32063, United States", "category": "place", "type_1": "house", "latlong": "30.22808034204239,-82.1451326146598", "NAME": "Baker", "Geographic": "Census Tract 401.02; Baker County; Florida", "x": -82.145132614700003, "y": 30.228080341999998 }, "geometry": { "type": "Point", "coordinates": [ 389804.397858663403895, 3344613.3810328040272 ] } },
{ "type": "Feature", "properties": { "File Numbe": "100016", "Facility": "KINDRED HOSPITAL-NORTH FLORIDA", "Type": "Hospital", "Street Add": "801 OAK ST", "City": "GREEN COVE SPRINGS", "Zip": "32043", "State": "Florida", "Country": "USA", "Phone Numb": "(904) 297-9505", "Licensed B": "73", "display_na": "Kindred Hospital - North Florida, 801, Oak Street, Green Cove Springs, Clay County, Florida, 32043, United States", "category": "amenity", "type_1": "hospital", "latlong": "29.9877882,-81.6824678", "NAME": "Clay", "Geographic": "Census Tract 314; Clay County; Florida", "x": -81.6824678, "y": 29.9877882 }, "geometry": { "type": "Point", "coordinates": [ 434168.71779615234118, 3317628.155054865404963 ] } },
{ "type": "Feature", "properties": { "File Numbe": "100226", "Facility": "HCA FLORIDA ORANGE PARK HOSPITAL", "Type": "Hospital", "Street Add": "2001 KINGSLEY AVE", "City": "ORANGE PARK", "Zip": "32073", "State": "Florida", "Country": "USA", "Phone Numb": "(904) 639-8500", "Licensed B": "433", "display_na": "Orange Park Medical Center, 2001, Kingsley Avenue, Orange Park, Clay County, Florida, 32073, United States", "category": "amenity", "type_1": "hospital", "latlong": "30.16595815,-81.73737692501658", "NAME": "Clay", "Geographic": "Census Tract 304; Clay County; Florida", "x": -81.737376925000007, "y": 30.16595815 }, "geometry": { "type": "Point", "coordinates": [ 428999.356059490586631, 3337404.683810480870306 ] } },
{ "type": "Feature", "properties": { "File Numbe": "23960117", "Facility": "ASCENSION ST VINCENT'S CLAY COUNTY", "Type": "Hospital", "Street Add": "1670 ST VINCENTS WAY", "City": "MIDDLEBURG", "Zip": "32068", "State": "Florida", "Country": "USA", "Phone Numb": "(904) 602-1000", "Licensed B": "134", "display_na": "Saint Vincent’s Medical Center Clay County, 1670, Saint Vincents Way, Middleburg, Clay County, Florida, 32073, United States", "category": "amenity", "type_1": "hospital", "latlong": "30.10970575,-81.83242745987866", "NAME": "Clay", "Geographic": "Census Tract 302.04; Clay County; Florida", "x": -81.832427459900003, "y": 30.10970575 }, "geometry": { "type": "Point", "coordinates": [ 419801.340035335742868, 3331234.011867235414684 ] } },
{ "type": "Feature", "properties": { "File Numbe": "911", "Facility": "NEUROTECH INC", "Type": "Health Care Clinic", "Street Add": "930 KINGSLEY AVE", "City": "ORANGE PARK", "Zip": "32073", "State": "Florida", "Country": "USA", "Phone Numb": "(904) 269-0500", "Licensed B": "0", "display_na": "930, Kingsley Avenue, Orange Park, Clay County, Florida, 32073, United States", "category": "place", "type_1": "house", "latlong": "30.165664282828285,-81.71494873737375", "NAME": "Clay", "Geographic": "Census Tract 305; Clay County; Florida", "x": -81.714948737399993, "y": 30.165664282800002 }, "geometry": { "type": "Point", "coordinates": [ 431158.776840416772757, 3337358.364043601322919 ] } },
{ "type": "Feature", "properties": { "File Numbe": "911", "Facility": "NEUROTECH INC", "Type": "Health Care Clinic", "Street Add": "930 KINGSLEY AVE", "City": "ORANGE PARK", "Zip": "32073", "State": "Florida", "Country": "USA", "Phone Numb": "(904) 269-0500", "Licensed B": "0", "display_na": "930, Kingsley Avenue, Orange Park, Clay County, Florida, 32073, United States", "category": "place", "type_1": "house", "latlong": "30.165418126353305,-81.71345381811786", "NAME": "Clay", "Geographic": "Census Tract 305; Clay County; Florida", "x": -81.713453818100007, "y": 30.165418126399999 }, "geometry": { "type": "Point", "coordinates": [ 431302.553148309525568, 3337330.184471645858139 ] } },
{ "type": "Feature", "properties": { "File Numbe": "4945", "Facility": "CARESPOT EXPRESS HEALTHCARE", "Type": "Health Care Clinic", "Street Add": "2140 KINGSLEY AVE", "City": "ORANGE PARK", "Zip": "32073", "State": "Florida", "Country": "USA", "Phone Numb": "(904) 213-0600", "Licensed B": "0", "display_na": "2140, Kingsley Avenue, Orange Park, Clay County, Florida, 32073, United States", "category": "place", "type_1": "house", "latlong": "30.164607117552784,-81.73927377102653", "NAME": "Clay", "Geographic": "Census Tract 308.01; Clay County; Florida", "x": -81.739273771000001, "y": 30.164607117599999 }, "geometry": { "type": "Point", "coordinates": [ 428815.736512223083992, 3337256.151276879012585 ] } },
{ "type": "Feature", "properties": { "File Numbe": "4945", "Facility": "CARESPOT EXPRESS HEALTHCARE", "Type": "Health Care Clinic", "Street Add": "2140 KINGSLEY AVE", "City": "ORANGE PARK", "Zip": "32073", "State": "Florida", "Country": "USA", "Phone Numb": "(904) 213-0600", "Licensed B": "0", "display_na": "2140, Kingsley Avenue, Orange Park, Clay County, Florida, 32073, United States", "category": "place", "type_1": "house", "latlong": "30.164810204081633,-81.74156893877552", "NAME": "Clay", "Geographic": "Census Tract 304; Clay County; Florida", "x": -81.7415689388, "y": 30.1648102041 }, "geometry": { "type": "Point", "coordinates": [ 428594.876303471974097, 3337280.091605839319527 ] } },
{ "type": "Feature", "properties": { "File Numbe": "10636", "Facility": "CARESPOT EXPRESS HEALTHCARE", "Type": "Health Care Clinic", "Street Add": "1708 BLANDING BLVD", "City": "MIDDLEBURG", "Zip": "32068", "State": "Florida", "Country": "USA", "Phone Numb": "(904) 406-8240", "Licensed B": "0", "display_na": "1708, Blanding Boulevard, Clay County, Florida, 32068, United States", "category": "place", "type_1": "house", "latlong": "30.108237557173588,-81.82258197279674", "NAME": "Clay", "Geographic": "Census Tract 302.09; Clay County; Florida", "x": -81.822581972799995, "y": 30.108237557199999 }, "geometry": { "type": "Point", "coordinates": [ 420748.745962366811, 3331064.43992644129321 ] } },
{ "type": "Feature", "properties": { "File Numbe": "10636", "Facility": "CARESPOT EXPRESS HEALTHCARE", "Type": "Health Care Clinic", "Street Add": "1708 BLANDING BLVD", "City": "MIDDLEBURG", "Zip": "32068", "State": "Florida", "Country": "USA", "Phone Numb": "(904) 406-8240", "Licensed B": "0", "display_na": "1708, Blanding Boulevard, Rattlesnake Bend, Clay County, Florida, 32068, United States", "category": "place", "type_1": "house", "latlong": "30.102347181818182,-81.83286345454546", "NAME": "Clay", "Geographic": "Census Tract 302.04; Clay County; Florida", "x": -81.8328634545, "y": 30.102347181799999 }, "geometry": { "type": "Point", "coordinates": [ 419753.387316790351178, 3330418.872879148926586 ] } },
{ "type": "Feature", "properties": { "File Numbe": "10822", "Facility": "NORTH FLORIDA MEDICAL CENTER", "Type": "Health Care Clinic", "Street Add": "1218 PARK AVE", "City": "ORANGE PARK", "Zip": "32073", "State": "Florida", "Country": "USA", "Phone Numb": "(904) 269-2437", "Licensed B": "0", "display_na": "1218, Park Avenue, Orange Park, Clay County, Florida, 32073, United States", "category": "place", "type_1": "house", "latlong": "30.17481508455029,-81.70161889575236", "NAME": "Clay", "Geographic": "Census Tract 306; Clay County; Florida", "x": -81.701618895799996, "y": 30.174815084599999 }, "geometry": { "type": "Point", "coordinates": [ 432448.558417754131369, 3338364.437607659958303 ] } },
{ "type": "Feature", "properties": { "File Numbe": "10822", "Facility": "NORTH FLORIDA MEDICAL CENTER", "Type": "Health Care Clinic", "Street Add": "1218 PARK AVE", "City": "ORANGE PARK", "Zip": "32073", "State": "Florida", "Country": "USA", "Phone Numb": "(904) 269-2437", "Licensed B": "0", "display_na": "1218, Park Avenue, Orange Park, Clay County, Florida, 32073, United States", "category": "place", "type_1": "house", "latlong": "30.174511841776802,-81.70125736521967", "NAME": "Clay", "Geographic": "Census Tract 306; Clay County; Florida", "x": -81.701257365199993, "y": 30.174511841800001 }, "geometry": { "type": "Point", "coordinates": [ 432483.160486072185449, 3338330.619495615363121 ] } },
{ "type": "Feature", "properties": { "File Numbe": "100016", "Facility": "KINDRED HOSPITAL-NORTH FLORIDA", "Type": "Hospital", "Street Add": "801 OAK ST", "City": "GREEN COVE SPRINGS", "Zip": "32043", "State": "Florida", "Country": "USA", "Phone Numb": "(904) 297-9505", "Licensed B": "73", "display_na": "801, Oak Street, Fernandina Beach, Nassau County, Florida, 32034, United States", "category": "place", "type_1": "house", "latlong": "30.638603,-81.45667", "NAME": "Nassau", "Geographic": "Census Tract 502.04; Nassau County; Florida", "x": -81.45667, "y": 30.638603 }, "geometry": { "type": "Point", "coordinates": [ 456239.743147198285442, 3389640.064118578098714 ] } },
{ "type": "Feature", "properties": { "File Numbe": "100134", "Facility": "ED FRASER MEMORIAL HOSPITAL", "Type": "Hospital", "Street Add": "159 N 3RD ST", "City": "MACCLENNY", "Zip": "32063", "State": "Florida", "Country": "USA", "Phone Numb": "(904) 259-3151", "Licensed B": "25", "display_na": "159, North 3rd Street, Fernandina Beach, Nassau County, Florida, 32034, United States", "category": "place", "type_1": "house", "latlong": "30.673221675129255,-81.46275890385552", "NAME": "Nassau", "Geographic": "Census Tract 501.02; Nassau County; Florida", "x": -81.462758903899996, "y": 30.673221675099999 }, "geometry": { "type": "Point", "coordinates": [ 455672.069265969912522, 3393478.925224429462105 ] } },
{ "type": "Feature", "properties": { "File Numbe": "100140", "Facility": "BAPTIST MEDICAL CENTER NASSAU", "Type": "Hospital", "Street Add": "1250 S 18TH ST", "City": "FERNANDINA BEACH", "Zip": "32034", "State": "Florida", "Country": "USA", "Phone Numb": "(904) 321-3500", "Licensed B": "62", "display_na": "Baptist Medical Center Nassau, 1250, South 18th Street, Fernandina Beach, Nassau County, Florida, 32034, United States", "category": "amenity", "type_1": "hospital", "latlong": "30.652309250000002,-81.44914241907776", "NAME": "Nassau", "Geographic": "Census Tract 501.04; Nassau County; Florida", "x": -81.449142419099999, "y": 30.65230925 }, "geometry": { "type": "Point", "coordinates": [ 456967.147790568531491, 3391156.094364180695266 ] } }
]
}
